markers: [
    
    {
    title: 'United States of America',
    key: 0,
    slug: "united-states",
    coordinates: {
      latitude: 39.381266,
      longitude: -97.922211
    },
    coronavirus: {
      Confirmed: "0",
      Deaths: "0",
      Recovered: "0"
    }
  },
  {
    title: 'Canada',
    key: 1,
    slug: "canada",
    coordinates: {
      latitude: 55.585901,
      longitude: -105.750596
    },  
    coronavirus: {
      Confirmed: "0",
      Deaths: "0",
      Recovered: "0",
    }
  },
  {
    title: 'Brazil',
    key: 2,
    slug: "brazil",
    coordinates: {
      latitude: -14.235004,
      longitude: -51.92528
    },  
    coronavirus: {
      Confirmed: "0",
      Deaths: "0",
      Recovered: "0",
    }
  },
  {
    title: 'Mexico',
    key: 3,
    slug: "mexico",
    coordinates: {
      latitude: 23.634501,
      longitude: -102.552784
    },  
    coronavirus: {
      Confirmed: "0",
      Deaths: "0",
      Recovered: "0",
    }
  },
  {
    title: 'Guatemala',
    key: 4,
    slug: "guatemala",
    coordinates: {
      latitude: 15.783471,
      longitude: -90.230759
    },  
    coronavirus: {
      Confirmed: "0",
      Deaths: "0",
      Recovered: "0",
    }
  },
  {
    title: 'Argentina',
    key: 5,
    slug: "argentina",
    coordinates: {
      latitude: -38.416097,
      longitude: -63.616672
    },  
    coronavirus: {
      Confirmed: "0",
      Deaths: "0",
      Recovered: "0",
    }
  },
  {
    title: 'Cuba',
    key: 6,
    slug: "cuba",
    coordinates: {
      latitude: 21.521757,
      longitude: -77.781167
    },  
    coronavirus: {
      Confirmed: "0",
      Deaths: "0",
      Recovered: "0",
    }
  },
  {
    title: 'Chile',
    key: 7,
    slug: "chile",
    coordinates: {
      latitude: -35.675147,
      longitude: -71.542969
    },  
    coronavirus: {
      Confirmed: "0",
      Deaths: "0",
      Recovered: "0",
    }
  },
  {
    title: 'Peru',
    key: 8,
    slug: "peru",
    coordinates: {
      latitude: -9.189967,
      longitude: -75.015152
    },  
    coronavirus: {
      Confirmed: "0",
      Deaths: "0",
      Recovered: "0",
    }
  },
  {
    title: 'Uruguay',
    key: 9,
    slug: "uruguay",
    coordinates: {
      latitude: -32.522779,
      longitude: -55.765835
    },  
    coronavirus: {
      Confirmed: "0",
      Deaths: "0",
      Recovered: "0",
    }
  },
  {
    title: 'Paraguay',
    key: 10,
    slug: "paraguay",
    coordinates: {
      latitude: -23.442503,
      longitude: -58.443832
    },  
    coronavirus: {
      Confirmed: "0",
      Deaths: "0",
      Recovered: "0",
    }
  },
  {
    title: 'Bolivia',
    key: 11,
    slug: "bolivia",
    coordinates: {
      latitude: -16.290154,
      longitude: -63.588653
    },  
    coronavirus: {
      Confirmed: "0",
      Deaths: "0",
      Recovered: "0",
    }
  },
  {
    title: 'Colombia',
    key: 12,
    slug: "colombia",
    coordinates: {
      latitude: 	4.570868,
      longitude: -74.297333
    },  
    coronavirus: {
      Confirmed: "0",
      Deaths: "0",
      Recovered: "0",
    }
  },
  {
    title: 'Ecuador',
    key: 13,
    slug: "ecuador",
    coordinates: {
      latitude: -1.831239,
      longitude: -78.183406
    },  
    coronavirus: {
      Confirmed: "0",
      Deaths: "0",
      Recovered: "0",
    }
  },
  {
    title: 'Venezuela',
    key: 14,
    slug: "venezuela",
    coordinates: {
      latitude: 6.42375,
      longitude: -66.58973
    },  
    coronavirus: {
      Confirmed: "0",
      Deaths: "0",
      Recovered: "0",
    }
  },
  {
    title: 'Guyana',
    key: 15,
    slug: "guyana",
    coordinates: {
      latitude: 4.860416,
      longitude: -58.93018
    },  
    coronavirus: {
      Confirmed: "0",
      Deaths: "0",
      Recovered: "0",
    }
  },
  {
    title: 'South Africa',
    key: 16,
    slug: "south-africa",
    coordinates: {
      latitude: -30.559482,
      longitude: 22.937506
    },  
    coronavirus: {
      Confirmed: "0",
      Deaths: "0",
      Recovered: "0",
    }
  },
  {
    title: 'Egypt',
    key: 17,
    slug: "egypt",
    coordinates: {
      latitude: 26.820553,
      longitude: 30.802498
    },  
    coronavirus: {
      Confirmed: "0",
      Deaths: "0",
      Recovered: "0",
    }
  },
  {
    title: 'Central African Republic',
    key: 18,
    slug: "central-african-republic",
    coordinates: {
      latitude: 6.611111,
      longitude: 20.939444
    },  
    coronavirus: {
      Confirmed: "0",
      Deaths: "0",
      Recovered: "0",
    }
  },
  {
    title: 'Mauritania',
    key: 19,
    slug: "mauritania",
    coordinates: {
      latitude: 21.00789,
      longitude: -10.940835
    },  
    coronavirus: {
      Confirmed: "0",
      Deaths: "0",
      Recovered: "0",
    }
  },
  {
    title: 'Portugal',
    key: 20,
    slug: "portugal",
    coordinates: {
      latitude: 39.399872,
      longitude: -8.224454
    },  
    coronavirus: {
      Confirmed: "0",
      Deaths: "0",
      Recovered: "0",
    }
  },
  {
    title: 'Iraq',
    key: 21,
    slug: "iraq",
    coordinates: {
      latitude: 33.223191,
      longitude: 43.679291
    },  
    coronavirus: {
      Confirmed: "0",
      Deaths: "0",
      Recovered: "0",
    }
  },
  {
    title: 'India',
    key: 22,
    slug: "india",
    coordinates: {
      latitude: 20.593684,
      longitude: 78.96288
    },  
    coronavirus: {
      Confirmed: "0",
      Deaths: "0",
      Recovered: "0",
    }
  },
  {
    title: 'China',
    key: 23,
    slug: "china",
    coordinates: {
      latitude: 35.86166,
      longitude: 104.195397
    },  
    coronavirus: {
      Confirmed: "0",
      Deaths: "0",
      Recovered: "0",
    }
  },
  {
    title: 'Russia',
    key: 24,
    slug: "russia",
    coordinates: {
      latitude: 61.52401,
      longitude: 105.318756
    },  
    coronavirus: {
      Confirmed: "0",
      Deaths: "0",
      Recovered: "0",
    }
  },
  {
    title: 'Japan',
    key: 25,
    slug: "japan",
    coordinates: {
      latitude: 36.204824,
      longitude: 138.252924
    },  
    coronavirus: {
      Confirmed: "0",
      Deaths: "0",
      Recovered: "0",
    }
  },
  {
    title: 'Korea (South)',
    key: 26,
    slug: "korea-south",
    coordinates: {
      latitude: 35.907757,
      longitude: 127.766922
    },  
    coronavirus: {
      Confirmed: "0",
      Deaths: "0",
      Recovered: "0",
    }
  },
  {
    title: 'Myanmar',
    key: 27,
    slug: "myanmar",
    coordinates: {
      latitude: 21.913965,
      longitude: 95.956223
    },  
    coronavirus: {
      Confirmed: "0",
      Deaths: "0",
      Recovered: "0",
    }
  },
  {
    title: 'Thailand',
    key: 28,
    slug: "thailand",
    coordinates: {
      latitude: 15.870032,
      longitude: 100.992541
    },  
    coronavirus: {
      Confirmed: "0",
      Deaths: "0",
      Recovered: "0",
    }
  },
  {
    title: 'Malaysia',
    key: 29,
    slug: "malaysia",
    coordinates: {
      latitude: 4.210484,
      longitude: 101.975766
    },  
    coronavirus: {
      Confirmed: "0",
      Deaths: "0",
      Recovered: "0",
    }
  },
  {
    title: 'Indonesia',
    key: 30,
    slug: "indonesia",
    coordinates: {
      latitude: -0.789275,
      longitude: 113.921327
    },  
    coronavirus: {
      Confirmed: "0",
      Deaths: "0",
      Recovered: "0",
    }
  },
  {
    title: 'Papua New Guinea',
    key: 31,
    slug: "papua-new-guinea",
    coordinates: {
      latitude: -6.314993,
      longitude: 143.95555
    },  
    coronavirus: {
      Confirmed: "0",
      Deaths: "0",
      Recovered: "0",
    }
  },
  {
    title: 'Australia',
    key: 32,
    slug: "australia",
    coordinates: {
      latitude: -25.274398,
      longitude: 133.775136
    },  
    coronavirus: {
      Confirmed: "0",
      Deaths: "0",
      Recovered: "0",
    }
  },

  {
    title: 'Zimbabwe',
    key: 33,
    slug: "zimbabwe",
    coordinates: {
      latitude: -19.02,
      longitude: 29.15
    },  
    coronavirus: {
      Confirmed: "0",
      Deaths: "0",
      Recovered: "0",
    }
  },
  {
    title: 'Rwanda',
    key: 33,
    slug: "rwanda",
    coordinates: {
      latitude: -1.94,
      longitude:29.87
    },  
    coronavirus: {
      Confirmed: "0",
      Deaths: "0",
      Recovered: "0",
    }
  },

  {
    title: 'Kenya',
    key: 34,
    slug: "kenya",
    coordinates: {
      latitude: -0.02,
      longitude:37.91
    },  
    coronavirus: {
      Confirmed: "0",
      Deaths: "0",
      Recovered: "0",
    }
  },

  {
    title: 'Turkey',
    key: 35,
    slug: "turkey",
    coordinates: {
      latitude: 38.96,
      longitude:35.24
    },  
    coronavirus: {
      Confirmed: "0",
      Deaths: "0",
      Recovered: "0",
    }
  },

  {
    title: 'Bhutan',
    key: 36,
    slug: "bhutan",
    coordinates: {
      latitude: 27.51,
      longitude:90.43
    },  
    coronavirus: {
      Confirmed: "0",
      Deaths: "0",
      Recovered: "0",
    }
  },

  {
    title: 'Denmark',
    key: 37,
    slug: "denmakr",
    coordinates: {
      latitude: 56.26,
      longitude:9.5
    },  
    coronavirus: {
      Confirmed: "0",
      Deaths: "0",
      Recovered: "0",
    }
  },

  {
    title: 'Hungary',
    key: 38,
    slug: "hungary",
    coordinates: {
      latitude: 47.16,
      longitude:19.5
    },  
    coronavirus: {
      Confirmed: "0",
      Deaths: "0",
      Recovered: "0",
    }
  },

  {
    title: 'Zambia',
    key: 39,
    slug: "zambia",
    coordinates: {
      latitude: -13.13,
      longitude:27.85
    },  
    coronavirus: {
      Confirmed: "0",
      Deaths: "0",
      Recovered: "0",
    }
  },

  {
    title: 'Greece',
    key: 40,
    slug: "greece",
    coordinates: {
      latitude: 39.07,
      longitude:21.82
    },  
    coronavirus: {
      Confirmed: "0",
      Deaths: "0",
      Recovered: "0",
    }
  },

  {
    title: 'United Kingdom',
    key: 41,
    slug: "united-kingdom",
    coordinates: {
      latitude: 55.38,
      longitude:-3.44
    },  
    coronavirus: {
      Confirmed: "0",
      Deaths: "0",
      Recovered: "0",
    }
  },

  {
    title: 'Uganda',
    key: 43,
    slug: "uganda",
    coordinates: {
      latitude: 1.37,
      longitude:32.29
    },  
    coronavirus: {
      Confirmed: "0",
      Deaths: "0",
      Recovered: "0",
    }
  },

  {
    title: 'Italy',
    key: 45,
    slug: "italy",
    coordinates: {
      latitude: 41.87,
      longitude:12.57
    },  
    coronavirus: {
      Confirmed: "0",
      Deaths: "0",
      Recovered: "0",
    }
  },

  {
    title: 'Iceland',
    key: 46,
    slug: "iceland",
    coordinates: {
      latitude: 64.96,
      longitude:-19.02
    },  
    coronavirus: {
      Confirmed: "0",
      Deaths: "0",
      Recovered: "0",
    }
  },

    {
    title: 'Oman',
    key: 47,
    slug: "oman",
    coordinates: {
      latitude: 21.51,
      longitude:55.92
    },  
    coronavirus: {
      Confirmed: "0",
      Deaths: "0",
      Recovered: "0",
    }
  },

  {
    title: 'Spain',
    key: 48,
    slug: "spain",
    coordinates: {
      latitude: 40.46,
      longitude:-3.75
    },  
    coronavirus: {
      Confirmed: "0",
      Deaths: "0",
      Recovered: "0",
    }
  },

  {
    title: 'Ethiopia',
    key: 49,
    slug: "ethiopia",
    coordinates: {
      latitude: 9.15,
      longitude:40.49
    },  
    coronavirus: {
      Confirmed: "0",
      Deaths: "0",
      Recovered: "0",
    }
  },

  {
    title: 'France',
    key: 50,
    slug: "france",
    coordinates: {
      latitude: 46.23,
      longitude:2.21
    },  
    coronavirus: {
      Confirmed: "0",
      Deaths: "0",
      Recovered: "0",
    }
  },

]